<?xml version="1.0" encoding="UTF-8"?>
<kml xmlns="http://earth.google.com/kml/2.2">
   <Document>
      <name><![CDATA[Coworking spaces]]></name>
      <description />
      <Style id="style1">
         <IconStyle>
            <Icon>
               <href>http://geoklubb.se/foursquare-lists-kml-export/img/geoklubb-pin.png</href>
            </Icon>
         </IconStyle>
      </Style>
      <Placemark>
         <name><![CDATA[Ziferblat]]></name>
         <description><![CDATA[<a href="http://london.ziferblat.net">Venue URL</a><br />Phone: 07984 693440<br />]]></description>
         <styleUrl>#style1</styleUrl>
         <Point>
            <coordinates>-0.078374147415161,51.526985282303,0</coordinates>
         </Point>
      </Placemark>
      <Placemark>
         <name><![CDATA[Campus London]]></name>
         <description><![CDATA[<a href="http://campuslondon.com">Venue URL</a><br />]]></description>
         <styleUrl>#style1</styleUrl>
         <Point>
            <coordinates>-0.085487365722656,51.522703131223,0</coordinates>
         </Point>
      </Placemark>
      <Placemark>
         <name><![CDATA[Rainmaking Loft]]></name>
         <description><![CDATA[<a href="http://www.rainmakingloft.com">Venue URL</a><br />]]></description>
         <styleUrl>#style1</styleUrl>
         <Point>
            <coordinates>-0.073642730712891,51.50764732314,0</coordinates>
         </Point>
      </Placemark>
      <Placemark>
         <name><![CDATA[TechHub]]></name>
         <description><![CDATA[Phone: 020 7490 0764<br />]]></description>
         <styleUrl>#style1</styleUrl>
         <Point>
            <coordinates>-0.087708234786987,51.525032831563,0</coordinates>
         </Point>
      </Placemark>
      <Placemark>
         <name><![CDATA[Innovation Warehouse London]]></name>
         <description><![CDATA[<a href="http://innovationwarehouse.org">Venue URL</a><br />Phone: 020 7248 0199<br />]]></description>
         <styleUrl>#style1</styleUrl>
         <Point>
            <coordinates>-0.10269641876221,51.518998061413,0</coordinates>
         </Point>
      </Placemark>
      <Placemark>
         <name><![CDATA[Hub Westminster]]></name>
         <description><![CDATA[<a href="http://westminster.impacthub.net">Venue URL</a><br />Phone: 020 7148 6720<br />]]></description>
         <styleUrl>#style1</styleUrl>
         <Point>
            <coordinates>-0.13124592579464,51.507792367419,0</coordinates>
         </Point>
      </Placemark>
   </Document>
</kml>